<?xml version='1.0' encoding='UTF-8' standalone='yes' ?><gpx version="1.1" creator="GPS-Essentials/Android/com.mictale.gpsessentials/4.4.24" xmlns="http://www.topografix.com/GPX/1/1" xmlns:x="http://www.gpsessentials.com/ns/gpx-ext/1/0"><metadata><name>Colani</name><desc>Dachsweg</desc><time>2018-05-31T22:45:50.000Z</time></metadata><wpt lat="51.880238" lon="10.484693"><extensions><x:speed>0.0</x:speed></extensions><time>2018-05-31T22:45:50.000Z</time><name>Colani</name><desc>Dachsweg</desc></wpt><wpt lat="51.88033" lon="10.486047"><extensions><x:speed>0.0</x:speed></extensions><time>2018-05-31T22:46:17.000Z</time><name>Schiefe Welt</name><desc>&lt;u&gt;Dachsweg&lt;/u&gt;</desc></wpt><wpt lat="51.88048" lon="10.486081"><extensions><x:speed>0.0</x:speed></extensions><time>2018-05-31T22:47:36.000Z</time><name>Flunder</name><desc>&lt;u&gt;Dachsweg&lt;/u&gt;</desc></wpt><wpt lat="51.880497" lon="10.486256"><extensions><x:speed>0.0</x:speed></extensions><time>2018-05-31T22:47:57.000Z</time><name>Hoan</name><desc>&lt;u&gt;Dachsweg&lt;/u&gt;</desc></wpt><wpt lat="51.880257" lon="10.486771"><extensions><x:speed>0.0</x:speed></extensions><time>2018-05-31T22:50:17.000Z</time><name>Randspitz</name><desc>&lt;u&gt;Dachsweg&lt;/u&gt;</desc></wpt><wpt lat="51.88034" lon="10.486744"><extensions><x:speed>0.0</x:speed></extensions><time>2018-05-31T22:51:12.000Z</time><name>Randmauer</name><desc>&lt;u&gt;Dachsweg&lt;/u&gt;</desc></wpt><wpt lat="51.88042" lon="10.48666"><extensions><x:speed>0.0</x:speed></extensions><time>2018-05-31T22:52:40.000Z</time><name>Stöhnender Block</name><desc>&lt;u&gt;Dachsweg&lt;/u&gt;</desc></wpt><wpt lat="51.88042" lon="10.4867325"><extensions><x:speed>0.0</x:speed></extensions><time>2018-05-31T22:53:42.000Z</time><name>Ägypten</name><desc>&lt;u&gt;Dachsweg&lt;/u&gt;</desc></wpt><wpt lat="51.880455" lon="10.486763"><extensions><x:speed>0.0</x:speed></extensions><time>2018-05-31T22:54:57.000Z</time><name>Dritte Dimension</name><desc>Dachsweg</desc></wpt><wpt lat="51.880535" lon="10.486765"><extensions><x:speed>0.0</x:speed></extensions><time>2018-05-31T22:56:27.000Z</time><name>Panzerechse</name><desc>&lt;u&gt;Dachsweg&lt;/u&gt;</desc></wpt><wpt lat="51.880447" lon="10.4865885"><extensions><x:speed>0.0</x:speed></extensions><time>2018-06-29T21:47:49.000Z</time><name>Knusperturm</name><desc>&lt;u&gt;Dachsweg&lt;/u&gt;</desc></wpt><wpt lat="51.8806" lon="10.48668"><time>2018-06-29T21:51:14.501Z</time><name>Knusperwand</name><desc>&lt;u&gt;Dachsweg&lt;/u&gt;</desc></wpt><wpt lat="51.88058" lon="10.486767"><time>2018-06-29T21:51:56.613Z</time><name>Nordkessel</name><desc>&lt;u&gt;Dachsweg&lt;/u&gt;</desc></wpt><wpt lat="51.880615" lon="10.48684"><extensions><x:speed>0.0</x:speed></extensions><time>2018-06-29T21:52:13.000Z</time><name>Nordflanke</name><desc>&lt;u&gt;Dachsweg&lt;/u&gt;</desc></wpt><wpt lat="51.880634" lon="10.486769"><extensions><x:speed>0.0</x:speed></extensions><time>2018-06-29T21:52:52.000Z</time><name>Laptop</name><desc>&lt;u&gt;Dachsweg&lt;/u&gt;</desc></wpt><wpt lat="51.88057" lon="10.487014"><extensions><x:speed>0.0</x:speed></extensions><time>2018-06-29T21:54:09.000Z</time><name>Einzug</name><desc>&lt;u&gt;Dachsweg&lt;/u&gt;</desc></wpt><wpt lat="51.880516" lon="10.487012"><time>2018-06-29T21:55:24.191Z</time><name>Hohler Spiegel</name><desc>&lt;u&gt;Dachsweg&lt;/u&gt;</desc></wpt><wpt lat="51.880558" lon="10.487085"><extensions><x:speed>0.0</x:speed></extensions><time>2018-06-29T21:55:34.000Z</time><name>Panorama-Quader</name><desc>&lt;u&gt;Dachsweg&lt;/u&gt;</desc></wpt><wpt lat="51.880375" lon="10.488271"><time>2018-06-29T21:57:28.539Z</time><name>Dreiecksplatte</name><desc>&lt;u&gt;Dachsweg&lt;/u&gt;</desc></wpt><wpt lat="51.880493" lon="10.488188"><time>2018-06-29T21:58:04.667Z</time><name>Sideboard</name><desc>&lt;u&gt;Dachsweg&lt;/u&gt;</desc></wpt><wpt lat="51.880543" lon="10.488379"><extensions><x:speed>0.0</x:speed></extensions><time>2018-06-29T21:58:44.000Z</time><name>Müllbox</name><desc>&lt;u&gt;Dachsweg&lt;/u&gt;</desc></wpt><wpt lat="51.880333" lon="10.488604"><time>2018-06-29T21:59:49.189Z</time><name>Eckball</name><desc>&lt;u&gt;Dachsweg&lt;/u&gt;</desc></wpt><wpt lat="51.88034" lon="10.488764"><extensions><x:speed>0.0</x:speed></extensions><time>2018-06-29T22:00:30.000Z</time><name>Mäuerchen</name><desc>&lt;u&gt;Dachsweg&lt;/u&gt;</desc></wpt><wpt lat="51.88047" lon="10.488579"><time>2018-06-29T22:02:08.873Z</time><name>Buchenklippe</name><desc>&lt;u&gt;Dachsweg&lt;/u&gt;</desc></wpt><wpt lat="51.88063" lon="10.48857"><time>2018-06-29T22:02:47.124Z</time><name>Grüne Tonne</name><desc>&lt;u&gt;Dachsweg&lt;/u&gt;</desc></wpt><wpt lat="51.880573" lon="10.488757"><time>2018-06-29T22:03:27.360Z</time><name>Zwergenburg</name><desc>&lt;u&gt;Dachsweg&lt;/u&gt;</desc></wpt><wpt lat="51.881203" lon="10.486075"><time>2018-06-29T22:05:02.993Z</time><name>Grüner Drache</name><desc>&lt;u&gt;Dachsweg&lt;/u&gt;</desc></wpt><wpt lat="51.881737" lon="10.485846"><extensions><x:speed>0.0</x:speed></extensions><time>2018-06-29T22:05:07.000Z</time><name>Zyklop</name><desc>&lt;u&gt;Dachsweg&lt;/u&gt;</desc></wpt><wpt lat="51.881844" lon="10.487375"><time>2018-06-29T22:06:41.407Z</time><name>Smile</name><desc>&lt;u&gt;Dachsweg&lt;/u&gt;</desc></wpt><wpt lat="51.88176" lon="10.48759"><time>2018-06-29T22:07:52.750Z</time><name>Frown</name><desc>&lt;u&gt;Dachsweg&lt;/u&gt;</desc></wpt><wpt lat="51.88176" lon="10.487605"><time>2018-06-29T22:08:45.054Z</time><name>Cry</name><desc>&lt;u&gt;Dachsweg&lt;/u&gt;</desc></wpt><wpt lat="51.881763" lon="10.48778"><extensions><x:speed>0.0</x:speed></extensions><time>2018-06-29T22:09:14.000Z</time><name>ScheinBar</name><desc>&lt;u&gt;Dachsweg&lt;/u&gt;</desc></wpt><wpt lat="51.88174" lon="10.48759"><time>2018-06-29T22:10:27.873Z</time><name>Schirmchen</name><desc>&lt;u&gt;Dachsweg&lt;/u&gt;</desc></wpt></gpx>