<?xml version='1.0' encoding='UTF-8' standalone='yes' ?><gpx version="1.1" creator="GPS-Essentials/Android/com.mictale.gpsessentials/4.4.25" xmlns="http://www.topografix.com/GPX/1/1" xmlns:x="http://www.gpsessentials.com/ns/gpx-ext/1/0"><metadata><name>Knusperhäuschen</name><desc>&lt;u&gt;Feigenbaum&lt;/u&gt;</desc><time>2018-10-13T13:40:39.000Z</time></metadata><wpt lat="51.865055" lon="10.48014"><ele>0.0</ele><extensions><x:speed>0.0</x:speed></extensions><time>2018-10-13T13:40:39.000Z</time><name>Knusperhäuschen</name><desc>&lt;u&gt;Feigenbaum&lt;/u&gt;</desc></wpt><wpt lat="51.86493" lon="10.480252"><ele>0.0</ele><extensions><x:speed>0.0</x:speed></extensions><time>2018-10-13T13:42:33.000Z</time><name>Seele</name><desc>&lt;u&gt;Feigenbaum&lt;/u&gt;</desc></wpt><wpt lat="51.865112" lon="10.480491"><ele>0.0</ele><extensions><x:speed>0.0</x:speed></extensions><time>2018-10-13T13:43:15.000Z</time><name>The Big Easy</name><desc>&lt;u&gt;Feigenbaum&lt;/u&gt;</desc></wpt><wpt lat="51.864933" lon="10.480499"><ele>49.0</ele><extensions><x:speed>0.0</x:speed></extensions><time>2018-10-13T13:44:00.000Z</time><name>Vergessener Block</name><desc>&lt;u&gt;Feigenbaum&lt;/u&gt;</desc></wpt><wpt lat="51.864784" lon="10.480858"><ele>0.0</ele><extensions><x:speed>0.0</x:speed></extensions><time>2018-10-13T13:46:30.000Z</time><name>Raststätte</name><desc>&lt;u&gt;Feigenbaum&lt;/u&gt;</desc></wpt><wpt lat="51.865025" lon="10.481301"><ele>0.0</ele><extensions><x:speed>0.0</x:speed></extensions><time>2018-10-13T13:47:56.000Z</time><name>Torwächter</name><desc>&lt;u&gt;Feigenbaum&lt;/u&gt;</desc></wpt><wpt lat="51.86475" lon="10.481408"><ele>0.0</ele><extensions><x:speed>0.0</x:speed></extensions><time>2018-10-13T13:49:25.000Z</time><name>Spocks Ohr</name><desc>&lt;u&gt;Feigenbaum&lt;/u&gt;</desc></wpt><wpt lat="51.86461" lon="10.481476"><ele>0.0</ele><extensions><x:speed>0.0</x:speed></extensions><time>2018-10-13T13:50:25.000Z</time><name>M&amp;M</name><desc>&lt;u&gt;Feigenbaum&lt;/u&gt;</desc></wpt><wpt lat="51.86422" lon="10.4794445"><ele>80.0</ele><extensions><x:speed>0.0</x:speed></extensions><time>2018-10-13T13:51:55.000Z</time><name>Public Domain</name><desc>&lt;u&gt;Feigenbaum&lt;/u&gt;</desc></wpt><wpt lat="51.864094" lon="10.479441"><ele>0.0</ele><extensions><x:speed>0.0</x:speed></extensions><time>2018-10-13T13:54:30.000Z</time><name>Mad Domain</name><desc>Feigenbaum</desc></wpt><wpt lat="51.86409" lon="10.479803"><ele>0.0</ele><extensions><x:speed>0.0</x:speed></extensions><time>2018-10-13T13:55:17.000Z</time><name>Augenweide</name><desc>&lt;u&gt;Feigenbaum&lt;/u&gt;</desc></wpt><wpt lat="51.863853" lon="10.479781"><ele>0.0</ele><extensions><x:speed>0.0</x:speed></extensions><time>2018-10-13T13:56:41.000Z</time><name>Noname</name><desc>&lt;u&gt;Feigenbaum&lt;/u&gt;</desc></wpt><wpt lat="51.863865" lon="10.479796"><ele>0.0</ele><extensions><x:speed>0.0</x:speed></extensions><time>2018-10-13T14:02:29.000Z</time><name>Trickkiste</name><desc>&lt;u&gt;Feigenbaum&lt;/u&gt;</desc></wpt><wpt lat="51.864014" lon="10.480179"><ele>0.0</ele><extensions><x:speed>0.0</x:speed></extensions><time>2018-10-13T14:03:40.000Z</time><name>Stoßzahn</name><desc>&lt;u&gt;Feigenbaum&lt;/u&gt;</desc></wpt><wpt lat="51.86402" lon="10.480237"><ele>0.0</ele><extensions><x:speed>0.0</x:speed></extensions><time>2018-10-13T14:22:18.146Z</time><name>Drachenhöhle</name><desc>&lt;u&gt;Feigenbaum&lt;/u&gt;</desc></wpt><wpt lat="51.863956" lon="10.480322"><ele>0.0</ele><extensions><x:speed>0.0</x:speed></extensions><time>2018-10-13T14:24:01.859Z</time><name>Puma</name><desc>&lt;u&gt;Feigenbaum&lt;/u&gt;</desc></wpt><wpt lat="51.863937" lon="10.480336"><ele>0.0</ele><extensions><x:speed>0.0</x:speed></extensions><time>2018-10-13T14:25:20.000Z</time><name>Miezekatze</name><desc>&lt;u&gt;Feigenbaum&lt;/u&gt;</desc></wpt><wpt lat="51.86352" lon="10.480453"><time>2018-10-17T19:41:01.319Z</time><name>Klauen &amp; Nagel</name><desc>&lt;u&gt;Feigenbaum&lt;/u&gt;</desc></wpt><wpt lat="51.863407" lon="10.480507"><time>2018-10-17T19:42:14.066Z</time><name>Ho-Chi-Minh Block</name><desc>Feigenbaum</desc></wpt><wpt lat="51.863377" lon="10.480753"><time>2018-10-17T19:42:59.230Z</time><name>Rücken</name><desc>Feigenbaum</desc></wpt><wpt lat="51.863365" lon="10.480898"><time>2018-10-17T19:43:44.192Z</time><name>Karoshi</name><desc>Feigenbaum</desc></wpt><wpt lat="51.86334" lon="10.480897"><time>2018-10-17T19:44:41.937Z</time><name>Franggnblock</name><desc>Feigenbaum</desc></wpt><wpt lat="51.863644" lon="10.480994"><time>2018-10-17T19:46:16.609Z</time><name>Feigenbaumklippe</name><desc>Feigenbaum</desc></wpt><wpt lat="51.863663" lon="10.480806"><time>2018-10-17T19:46:56.524Z</time><name>Pimmel</name><desc>Feigenbaum</desc></wpt><wpt lat="51.863743" lon="10.480954"><time>2018-10-17T19:47:45.817Z</time><name>Biertresen</name><desc>Feigenbaum</desc></wpt><wpt lat="51.863815" lon="10.480739"><time>2018-10-17T19:49:14.922Z</time><name>Feigenbaumspitze</name><desc>Feigenbaum</desc></wpt><wpt lat="51.863926" lon="10.480669"><time>2018-10-17T19:50:27.168Z</time><name>Blockkraftwerk</name><desc>&lt;u&gt;Feigenbaum&lt;/u&gt;</desc></wpt><wpt lat="51.864006" lon="10.480527"><extensions><x:speed>0.0</x:speed></extensions><time>2018-10-17T19:50:36.000Z</time><name>Violetter Block</name><desc>Feigenbaum</desc></wpt><wpt lat="51.863728" lon="10.481273"><time>2018-10-17T19:52:10.796Z</time><name>Cheeta</name><desc>Feigenbaum</desc></wpt><wpt lat="51.863747" lon="10.48136"><time>2018-10-17T19:53:19.357Z</time><name>Feigenbaumklötze</name><desc>Feigenbaum</desc></wpt><wpt lat="51.863556" lon="10.481325"><extensions><x:speed>0.0</x:speed></extensions><time>2018-10-17T19:54:27.000Z</time><name>Haubitze</name><desc>Feigenbaum</desc></wpt><wpt lat="51.86355" lon="10.481383"><time>2018-10-17T19:55:32.219Z</time><name>Köter</name><desc>Feigenbaum</desc></wpt><wpt lat="51.863457" lon="10.481453"><extensions><x:speed>0.0</x:speed></extensions><time>2018-10-17T19:56:54.000Z</time><name>Projektstein</name><desc>&lt;u&gt;Feigenbaum&lt;/u&gt;</desc></wpt><wpt lat="51.863117" lon="10.481268"><extensions><x:speed>0.0</x:speed></extensions><time>2018-10-17T19:57:30.000Z</time><name>Frauenfreund</name><desc>Feigenbaum</desc></wpt><wpt lat="51.86286" lon="10.480925"><extensions><x:speed>0.0</x:speed></extensions><time>2018-10-17T19:58:40.000Z</time><name>Ent Steine</name><desc>&lt;u&gt;Feigenbaum&lt;/u&gt;</desc></wpt><wpt lat="51.86293" lon="10.481174"><extensions><x:speed>0.0</x:speed></extensions><time>2018-10-17T19:59:02.000Z</time><name>Amöbe</name><desc>Feigenbaum</desc></wpt><wpt lat="51.86298" lon="10.481481"><extensions><x:speed>0.0</x:speed></extensions><time>2018-10-17T19:59:50.000Z</time><name>Schuppenmonster</name><desc>Feigenbaum</desc></wpt><wpt lat="51.86302" lon="10.481599"><extensions><x:speed>0.0</x:speed></extensions><time>2018-10-17T20:00:28.000Z</time><name>Reißer</name><desc>Feigenbaum</desc></wpt><wpt lat="51.863194" lon="10.48172"><extensions><x:speed>0.0</x:speed></extensions><time>2018-10-17T20:02:48.000Z</time><name>Riesendach</name><desc>&lt;u&gt;Feigenbaum&lt;/u&gt;</desc></wpt><wpt lat="51.863182" lon="10.481865"><extensions><x:speed>0.0</x:speed></extensions><time>2018-10-17T20:03:46.000Z</time><name>Dachsbau</name><desc>Feigenbaum</desc></wpt><wpt lat="51.86318" lon="10.481996"><extensions><x:speed>0.0</x:speed></extensions><time>2018-10-17T20:04:01.000Z</time><name>Liliputaner</name><desc>&lt;u&gt;Feigenbaum&lt;/u&gt;</desc></wpt><wpt lat="51.863235" lon="10.481911"><extensions><x:speed>0.0</x:speed></extensions><time>2018-10-17T20:04:51.000Z</time><name>Torpedo</name><desc>&lt;u&gt;Feigenbaum&lt;/u&gt;</desc></wpt><wpt lat="51.8635" lon="10.481658"><extensions><x:speed>0.0</x:speed></extensions><time>2018-10-17T20:05:52.000Z</time><name>Kalotte</name><desc>&lt;u&gt;Feigenbaum&lt;/u&gt;</desc></wpt><wpt lat="51.863552" lon="10.481659"><extensions><x:speed>0.0</x:speed></extensions><time>2018-10-17T20:06:26.000Z</time><name>Schwarzenegger</name><desc>Feigenbaum</desc></wpt><wpt lat="51.86354" lon="10.48179"><extensions><x:speed>0.0</x:speed></extensions><time>2018-10-17T20:07:04.000Z</time><name>Willis</name><desc>Feigenbaum</desc></wpt><wpt lat="51.863552" lon="10.481775"><time>2018-10-17T20:08:17.648Z</time><name>Stallone</name><desc>&lt;u&gt;Feigenbaum&lt;/u&gt;</desc></wpt><wpt lat="51.86367" lon="10.481489"><extensions><x:speed>0.0</x:speed></extensions><time>2018-10-17T20:09:32.000Z</time><name>Geber</name><desc>Feigenbaum</desc></wpt><wpt lat="51.86367" lon="10.481606"><extensions><x:speed>0.0</x:speed></extensions><time>2018-10-17T20:10:19.000Z</time><name>Hörer</name><desc>&lt;u&gt;Feigenbaum&lt;/u&gt;</desc></wpt><wpt lat="51.86366" lon="10.481663"><extensions><x:speed>0.0</x:speed></extensions><time>2018-10-17T20:11:02.000Z</time><name>Stepping Stone</name><desc>&lt;u&gt;Feigenbaum&lt;/u&gt;</desc></wpt><wpt lat="51.863758" lon="10.481637"><time>2018-10-17T20:12:32.186Z</time><name>Auge</name><desc>&lt;u&gt;Feigenbaum&lt;/u&gt;</desc></wpt><wpt lat="51.863758" lon="10.481623"><extensions><x:speed>0.0</x:speed></extensions><time>2018-10-17T20:13:09.000Z</time><name>Braue</name><desc>Feigenbaum</desc></wpt><wpt lat="51.86374" lon="10.481811"><extensions><x:speed>0.0</x:speed></extensions><time>2018-10-17T20:13:54.000Z</time><name>Diamant</name><desc>&lt;u&gt;Feigenbaum&lt;/u&gt;</desc></wpt><wpt lat="51.86385" lon="10.48164"><time>2018-10-17T20:15:15.310Z</time><name>Hohlspiegel</name><desc>&lt;u&gt;Feigenbaum&lt;/u&gt;</desc></wpt><wpt lat="51.86384" lon="10.481829"><time>2018-10-17T20:15:57.416Z</time><name>Platte</name><desc>&lt;u&gt;Feigenbaum&lt;/u&gt;</desc></wpt><wpt lat="51.863846" lon="10.481829"><extensions><x:speed>0.0</x:speed></extensions><time>2018-10-17T20:16:36.000Z</time><name>Souvenir</name><desc>&lt;u&gt;Feigenbaum&lt;/u&gt;</desc></wpt><wpt lat="51.86392" lon="10.481874"><time>2018-10-17T20:17:30.833Z</time><name>Oberkiefer</name><desc>&lt;u&gt;Feigenbaum&lt;/u&gt;</desc></wpt><wpt lat="51.863934" lon="10.482079"><extensions><x:speed>0.0</x:speed></extensions><time>2018-10-17T20:17:38.000Z</time><name>Parterre</name><desc>&lt;u&gt;Feigenbaum&lt;/u&gt;</desc></wpt><wpt lat="51.864357" lon="10.482107"><time>2018-10-17T20:27:25.046Z</time><name>Screen</name><desc>Feigenbaum</desc></wpt><wpt lat="51.86428" lon="10.482482"><time>2018-10-17T20:28:09.666Z</time><name>Große Mauer</name><desc>&lt;u&gt;Feigenbaum&lt;/u&gt;</desc></wpt><wpt lat="51.86364" lon="10.482678"><time>2018-10-17T20:29:02.666Z</time><name>Schneisenei</name><desc>&lt;u&gt;Feigenbaum&lt;/u&gt;</desc></wpt><wpt lat="51.864227" lon="10.483119"><time>2018-10-17T20:29:48.998Z</time><name>Stromatolith</name><desc>Feigenbaum</desc></wpt><wpt lat="51.864704" lon="10.483005"><extensions><x:speed>0.0</x:speed></extensions><time>2018-10-17T20:30:10.000Z</time><name>Spanische Mauer</name><desc>&lt;u&gt;Feigenbaum&lt;/u&gt;</desc></wpt><wpt lat="51.864193" lon="10.484962"><time>2018-10-17T20:31:21.146Z</time><name>Turm</name><desc>&lt;u&gt;Feigenbaum&lt;/u&gt;</desc></wpt><wpt lat="51.86416" lon="10.4849615"><time>2018-10-17T20:33:11.105Z</time><name>Gufel</name><desc>&lt;u&gt;Feigenbaum&lt;/u&gt;</desc></wpt><wpt lat="51.864174" lon="10.485079"><extensions><x:speed>0.0</x:speed></extensions><time>2018-10-17T20:33:21.000Z</time><name>Spalter</name><desc>&lt;u&gt;Feigenbaum&lt;/u&gt;</desc></wpt><wpt lat="51.86413" lon="10.485135"><time>2018-10-17T20:34:54.681Z</time><name>Dreieck</name><desc>&lt;u&gt;Feigenbaum&lt;/u&gt;</desc></wpt><wpt lat="51.864082" lon="10.485206"><extensions><x:speed>0.0</x:speed></extensions><time>2018-10-17T20:35:02.000Z</time><name>Tipi</name><desc>&lt;u&gt;Feigenbaum&lt;/u&gt;</desc></wpt><wpt lat="51.863934" lon="10.485056"><time>2018-10-17T20:36:17.254Z</time><name>Kapitän</name><desc>&lt;u&gt;Feigenbaum&lt;/u&gt;</desc></wpt><wpt lat="51.863815" lon="10.485023"><time>2018-10-17T20:36:56.435Z</time><name>Offizier</name><desc>&lt;u&gt;Feigenbaum&lt;/u&gt;</desc></wpt><wpt lat="51.8637" lon="10.485019"><time>2018-10-17T20:37:50.455Z</time><name>Steuermann</name><desc>&lt;u&gt;Feigenbaum&lt;/u&gt;</desc></wpt><wpt lat="51.864567" lon="10.486152"><time>2018-10-17T20:38:27.580Z</time><name>Keiler</name><desc>&lt;u&gt;Feigenbaum&lt;/u&gt;</desc></wpt><wpt lat="52.27157" lon="10.539518"><ele>67.0</ele><time>2018-10-17T20:39:27.647Z</time><name>Mittlere Ebereschenklippen</name><desc>&lt;u&gt;Feigenbaum&lt;/u&gt;</desc></wpt><wpt lat="51.864353" lon="10.487974"><time>2018-10-17T20:40:13.495Z</time><name>Memento</name><desc>&lt;u&gt;Feigenbaum&lt;/u&gt;</desc></wpt><wpt lat="51.863983" lon="10.487352"><time>2018-10-17T20:41:12.744Z</time><name>Erdorado</name><desc>&lt;u&gt;Feigenbaum&lt;/u&gt;</desc></wpt></gpx>