<?xml version='1.0' encoding='UTF-8' standalone='yes' ?><gpx version="1.1" creator="GPS-Essentials/Android/com.mictale.gpsessentials/4.4.24" xmlns="http://www.topografix.com/GPX/1/1" xmlns:x="http://www.gpsessentials.com/ns/gpx-ext/1/0"><metadata><name>Tr채ne</name><desc>&lt;u&gt;Tank&lt;/u&gt;</desc><time>2018-07-03T21:50:59.000Z</time></metadata><wpt lat="51.87673" lon="10.477662"><extensions><x:speed>0.0</x:speed></extensions><time>2018-07-03T21:50:59.000Z</time><name>Tr채ne</name><desc>&lt;u&gt;Tank&lt;/u&gt;</desc></wpt><wpt lat="51.876408" lon="10.478973"><extensions><x:speed>0.0</x:speed></extensions><time>2018-07-03T21:52:09.000Z</time><name>Placa Del Toros</name><desc>&lt;u&gt;Tank&lt;/u&gt;</desc></wpt><wpt lat="51.876472" lon="10.479629"><extensions><x:speed>0.0</x:speed></extensions><time>2018-07-03T21:52:57.000Z</time><name>Poldi</name><desc>&lt;u&gt;Tank&lt;/u&gt;</desc></wpt><wpt lat="51.87614" lon="10.479546"><extensions><x:speed>0.0</x:speed></extensions><time>2018-07-03T21:53:49.000Z</time><name>F채ustel</name><desc>&lt;u&gt;Tank&lt;/u&gt;</desc></wpt><wpt lat="51.875996" lon="10.478887"><extensions><x:speed>0.0</x:speed></extensions><time>2018-07-03T21:54:29.000Z</time><name>Hinkelstein</name><desc>&lt;u&gt;Tank&lt;/u&gt;</desc></wpt><wpt lat="51.87598" lon="10.47816"><extensions><x:speed>0.0</x:speed></extensions><time>2018-07-03T21:55:47.000Z</time><name>Siegrids Socke</name><desc>&lt;u&gt;Tank&lt;/u&gt;</desc></wpt><wpt lat="51.876106" lon="10.477902"><extensions><x:speed>0.0</x:speed></extensions><time>2018-07-03T21:56:29.000Z</time><name>Sandokan</name><desc>&lt;u&gt;Tank&lt;/u&gt;</desc></wpt><wpt lat="51.876007" lon="10.477885"><extensions><x:speed>0.0</x:speed></extensions><time>2018-07-03T21:57:11.000Z</time><name>Seifenoper</name><desc>&lt;u&gt;Tank&lt;/u&gt;</desc></wpt><wpt lat="51.875782" lon="10.475829"><extensions><x:speed>0.0</x:speed></extensions><time>2018-07-03T21:58:12.000Z</time><name>Polyp</name><desc>&lt;u&gt;Tank&lt;/u&gt;</desc></wpt><wpt lat="51.875725" lon="10.476249"><time>2018-07-03T21:59:29.249Z</time><name>Qualle</name><desc>&lt;u&gt;Tank&lt;/u&gt;</desc></wpt><wpt lat="51.875736" lon="10.476699"><time>2018-07-03T22:00:19.739Z</time><name>Opferstock</name><desc>&lt;u&gt;Tank&lt;/u&gt;</desc></wpt><wpt lat="51.87566" lon="10.477045"><extensions><x:speed>0.0</x:speed></extensions><time>2018-07-03T22:01:10.000Z</time><name>Tresor</name><desc>&lt;u&gt;Tank&lt;/u&gt;</desc></wpt><wpt lat="51.87558" lon="10.476955"><extensions><x:speed>0.0</x:speed></extensions><time>2018-07-03T22:01:49.000Z</time><name>Taka-Tuka Wand</name><desc>Tank</desc></wpt><wpt lat="51.875553" lon="10.477027"><extensions><x:speed>0.0</x:speed></extensions><time>2018-07-03T22:03:50.000Z</time><name>Nachbar</name><desc>&lt;u&gt;Tank&lt;/u&gt;</desc></wpt><wpt lat="51.87543" lon="10.477503"><extensions><x:speed>0.0</x:speed></extensions><time>2018-07-03T22:04:17.000Z</time><name>H채nger</name><desc>&lt;u&gt;Tank&lt;/u&gt;</desc></wpt><wpt lat="51.875446" lon="10.476167"><extensions><x:speed>0.0</x:speed></extensions><time>2018-07-03T22:05:03.000Z</time><name>Krankenhaus</name><desc>&lt;u&gt;Tank&lt;/u&gt;</desc></wpt><wpt lat="51.874836" lon="10.478108"><extensions><x:speed>0.0</x:speed></extensions><time>2018-07-03T22:05:56.000Z</time><name>Aschenbecher</name><desc>&lt;u&gt;Tank&lt;/u&gt;</desc></wpt><wpt lat="51.87471" lon="10.478176"><extensions><x:speed>0.0</x:speed></extensions><time>2018-07-03T22:06:34.000Z</time><name>Einsiedler</name><desc>&lt;u&gt;Tank&lt;/u&gt;</desc></wpt></gpx>